City_ID,City,Lat,Lng,Max Temp,Humidity,Cloudiness,Wind Speed,Country,Date
0,west island,-12.1568,96.8225,26.99,83,75,5.66,CC,1735510758
1,severo-yeniseyskiy,60.3725,93.0408,-9.34,93,100,3.69,RU,1735510760
2,iqaluit,63.7506,-68.5145,-25.5,84,4,1.23,CA,1735510761
3,grytviken,-54.2811,-36.5092,2.98,72,15,2.75,GS,1735510762
4,avarua,-21.2078,-159.775,29.03,84,40,5.66,CK,1735510514
5,nova vicosa,-17.8919,-39.3719,25.64,80,79,4.84,BR,1735510764
6,jamestown,42.097,-79.2353,16.12,81,100,7.72,US,1735510503
7,adamstown,-25.066,-130.1015,24.34,84,100,7.68,PN,1735510766
8,papatowai,-46.5619,169.4708,14.98,74,99,4.0,NZ,1735510768
9,udachny,66.4167,112.4,-36.77,100,85,2.09,RU,1735510769
10,harnai,30.1005,67.9374,8.96,21,49,1.07,PK,1735510770
11,bilibino,68.0546,166.4372,-34.87,78,15,2.54,RU,1735510735
12,santa cruz,-17.8,-63.1667,34.7,33,61,1.54,BO,1735510487
13,wailua homesteads,22.0669,-159.378,25.44,72,100,7.72,US,1735510773
14,st. john's,47.5649,-52.7093,-0.02,92,100,0.0,CA,1735510775
15,invercargill,-46.4,168.35,16.12,78,98,2.68,NZ,1735510776
16,sandnessjoen,66.0217,12.6316,0.23,93,100,5.66,NO,1735510777
17,tazovsky,67.4667,78.7,-19.59,99,98,3.46,RU,1735510778
18,yuzhno-kurilsk,44.0306,145.8556,-4.78,79,100,8.95,RU,1735510779
19,lata,40.1629,-8.3327,4.98,83,6,1.34,PT,1735510781
20,plesetsk,62.708,40.2916,1.02,98,100,6.26,RU,1735510783
21,edinburgh of the seven seas,-37.0676,-12.3116,14.49,67,100,4.98,SH,1735510784
22,georgetown,5.4112,100.3354,26.96,68,20,3.09,MY,1735510621
23,whitehorse,60.7161,-135.0538,-6.57,86,100,3.09,CA,1735510787
24,puerto natales,-51.7236,-72.4875,21.25,43,75,5.66,CL,1735510671
25,lazaro cardenas,17.9583,-102.2,26.64,56,0,3.75,MX,1735510789
26,waitangi,-43.9535,-176.5597,14.34,98,100,2.24,NZ,1735510790
27,aasiaat,68.7098,-52.8699,-26.48,88,29,2.72,GL,1735510791
28,muynoq,43.7683,59.0214,3.12,96,100,2.15,UZ,1735510792
29,sisimiut,66.9395,-53.6735,-14.53,65,0,4.76,GL,1735510794
30,afaahiti,-17.75,-149.2833,26.39,73,94,3.29,PF,1735510795
31,mili,6.0815,171.735,27.71,75,100,8.12,MH,1735510796
32,bethel,41.3712,-73.414,12.41,87,100,0.89,US,1735510797
33,port lincoln,-34.7333,135.8667,19.14,69,100,1.74,AU,1735510798
34,tiksi,71.6872,128.8694,-32.9,98,69,2.29,RU,1735510799
35,blackmans bay,-43.0167,147.3167,18.74,64,84,0.45,AU,1735510800
36,zhuanghe,39.7008,122.9911,-1.25,66,0,2.32,CN,1735510801
37,tumaco,1.7986,-78.8156,24.09,92,100,1.05,CO,1735510803
38,chonchi,-42.6128,-73.8092,18.95,52,100,1.31,CL,1735510805
39,utrik,11.2278,169.8474,27.01,75,50,9.3,MH,1735510806
40,cam ranh,11.9214,109.1591,23.98,69,75,3.09,VN,1735510807
41,mirny,62.5353,113.9611,-30.75,100,100,1.05,RU,1735510808
42,plouzane,48.3833,-4.6167,8.27,87,100,1.03,FR,1735510809
43,buka,40.8108,69.1986,4.31,75,100,1.86,UZ,1735510811
44,hasaki,35.7333,140.8333,6.59,40,72,1.67,JP,1735510812
45,maicanesti,45.5,27.5,1.36,84,7,2.72,RO,1735510813
46,kodiak,57.79,-152.4072,-2.27,93,100,1.54,US,1735510814
47,natal,-5.795,-35.2094,27.12,83,40,6.17,BR,1735510815
48,susuman,62.7833,148.1667,-30.99,97,100,1.38,RU,1735510817
49,olyokminsk,60.3736,120.4264,-29.14,98,98,0.44,RU,1735510818
50,barah,13.7,30.3667,17.97,21,0,5.08,SD,1735510819
51,margaret river,-33.95,115.0667,14.68,92,15,3.82,AU,1735510820
52,port elizabeth,-33.918,25.5701,22.95,98,20,6.17,ZA,1735510810
53,port-aux-francais,-49.35,70.2167,4.61,76,27,11.8,TF,1735510823
54,paradip garh,20.3167,86.6167,21.15,76,0,2.03,IN,1735510824
55,longyearbyen,78.2186,15.6401,-14.09,56,20,6.69,SJ,1735510825
56,monjaras,13.2006,-87.3742,28.43,73,100,4.57,HN,1735510827
57,port mathurin,-19.6833,63.4167,25.41,74,94,7.57,MU,1735510828
58,cockburn town,21.4612,-71.1419,24.48,64,100,6.87,TC,1735510829
59,gaigeturi,33.4644,126.3183,7.03,70,0,3.09,KR,1735510830
60,northam,51.0333,-4.2167,8.78,87,36,1.34,GB,1735510832
61,kerikeri,-35.2268,173.9474,24.06,47,6,1.61,NZ,1735510833
62,ilulissat,69.2167,-51.1,-14.99,56,0,1.54,GL,1735510834
63,oyem,1.5995,11.5793,21.5,90,76,1.27,GA,1735510835
64,zhosaly,45.4878,64.0781,-2.35,95,100,2.25,KZ,1735510837
65,egilsstadir,65.2653,-14.3948,-12.05,72,0,2.06,IS,1735510838
66,bahir dar,11.5936,37.3908,18.0,50,46,1.17,ET,1735510839
67,stanley,54.868,-1.6985,9.74,77,40,10.29,GB,1735510840
68,yelizovo,53.1873,158.3805,-13.92,66,0,2.0,RU,1735510572
69,calderitas,18.55,-88.25,29.06,79,75,4.12,MX,1735510844
70,kecel,46.5253,19.2519,1.51,73,15,2.35,HU,1735510845
71,jaffa,32.0504,34.7522,12.83,87,75,2.57,IL,1735510846
72,icano,-28.9193,-65.3282,34.62,25,3,8.39,AR,1735510776
73,santa ana,33.7456,-117.8678,16.82,91,100,0.0,US,1735510849
74,thompson,55.7435,-97.8558,-2.91,93,100,1.03,CA,1735510850
75,yellowknife,62.456,-114.3525,-6.99,99,100,3.6,CA,1735510851
76,ribeira grande,38.5167,-28.7,18.21,86,90,8.94,PT,1735510853
77,el hadjira,32.6134,5.5126,9.51,65,78,2.9,DZ,1735510854
78,puerto baquerizo moreno,-0.9,-89.6,26.55,74,40,6.69,EC,1735510855
79,sheregesh,52.9209,87.9869,-8.09,96,100,1.63,RU,1735510858
80,kayangel,8.0823,134.7173,28.79,77,100,7.7,PW,1735510859
81,cromer,52.9312,1.2989,8.0,81,10,7.15,GB,1735510860
82,sakiet sidi youssef,36.2229,8.3555,5.37,86,0,0.49,TN,1735510862
83,morondava,-20.2833,44.2833,26.15,84,96,1.8,MG,1735510863
84,albany,42.6001,-73.9662,10.32,98,100,2.19,US,1735510864
85,remire-montjoly,4.9167,-52.2667,26.02,94,100,1.03,GF,1735510866
86,benghazi,32.1167,20.0667,14.8,68,16,2.24,LY,1735510601
87,ulsteinvik,62.3432,5.8487,2.95,79,99,2.68,NO,1735510868
88,mellrichstadt,50.4333,10.3167,-2.79,75,10,1.14,DE,1735510869
89,hammerfest,70.6634,23.6821,1.25,75,0,2.57,NO,1735510871
90,kalmunai,7.4167,81.8167,24.14,92,94,3.38,LK,1735510872
91,klyuchi,52.2667,79.1667,-11.6,97,91,3.12,RU,1735510873
92,kokuy,52.2037,117.5529,-23.81,100,99,0.36,RU,1735510874
93,magistral'nyy,56.1725,107.4458,-11.89,93,98,2.5,RU,1735510875
94,falun,60.6036,15.626,5.23,97,100,2.24,SE,1735510821
95,east london,-33.0153,27.9116,23.61,92,84,6.19,ZA,1735510813
96,coron,11.9986,120.2043,26.92,79,100,6.27,PH,1735510879
97,suva,-18.1416,178.4415,27.71,74,75,2.06,FJ,1735510880
98,champerico,14.3,-91.9167,28.34,67,97,3.64,GT,1735510881
99,port macquarie,-31.4333,152.9167,25.6,70,1,1.79,AU,1735510883
100,fale old settlement,-9.3852,-171.2468,28.59,67,27,3.12,TK,1735510884
101,keflavik,64.0049,-22.5624,-6.76,68,0,6.17,IS,1735510886
102,jurm,36.8648,70.8342,-0.27,40,100,1.72,AF,1735510887
103,mahina,-17.5065,-149.489,29.87,62,64,4.12,PF,1735510888
104,la passe,45.5549,-0.8967,5.59,89,11,3.34,FR,1735510889
105,ushuaia,-54.8,-68.3,18.81,39,0,2.57,AR,1735510890
106,ixtapa,20.7,-105.2,24.57,65,0,4.63,MX,1735510892
107,nova sintra,14.8667,-24.7167,25.33,77,1,5.77,CV,1735510893
108,olonkinbyen,70.9221,-8.7187,-10.81,65,100,11.9,SJ,1735510894
109,puerto ayora,-0.7393,-90.3518,25.31,91,57,1.34,EC,1735510895
110,kapuskasing,49.4169,-82.4331,1.05,100,100,2.06,CA,1735510897
111,iskateley,67.6803,53.1512,-2.78,93,100,8.08,RU,1735510898
112,suluru,13.7,80.0167,21.94,94,36,3.17,IN,1735510900
113,haiku-pauwela,20.9219,-156.3051,25.14,71,40,8.75,US,1735510901
114,znamenka,52.4167,41.4311,-6.51,95,83,2.95,RU,1735510752
115,khandyga,62.6667,135.6,-48.05,100,54,0.74,RU,1735510903
116,port alfred,-33.5906,26.891,22.32,98,68,2.24,ZA,1735510905
117,floro,61.5996,5.0328,2.98,60,40,8.75,NO,1735510906
118,punta arenas,-53.15,-70.9167,17.06,48,0,3.09,CL,1735510907
119,manokwari,-0.8667,134.0833,26.09,84,100,4.4,ID,1735510908
120,touros,-5.1989,-35.4608,26.71,79,3,5.74,BR,1735510909
121,rockland,41.1668,-74.0496,9.39,95,100,1.62,US,1735510797
122,quellon,-43.1167,-73.6167,15.26,68,100,3.55,CL,1735510630
123,idri,27.5,13.2667,11.01,49,32,2.48,LY,1735510913
124,atafu village,-8.5421,-172.5159,28.29,72,13,2.73,TK,1735510915
125,alotau,-10.3069,150.4462,28.26,75,100,1.22,PG,1735510916
126,kone,-21.0595,164.8658,29.82,44,0,0.62,NC,1735510917
127,pisco,-13.7,-76.2167,22.03,73,0,10.29,PE,1735510918
128,polyarnyy,69.1989,33.4478,0.02,98,100,7.62,RU,1735510920
129,kirriemuir,56.674,-3.0034,9.19,87,100,9.62,GB,1735510922
130,tougan,13.0667,-3.0667,22.94,12,1,4.1,BF,1735510923
131,bredasdorp,-34.5322,20.0403,18.77,83,3,1.25,ZA,1735510924
132,sarmiento,-45.5882,-69.07,29.06,18,8,1.86,AR,1735510926
133,karonga,-9.9333,33.9333,24.48,80,100,1.24,MW,1735510927
134,volodarsk,56.2261,43.1861,-1.8,94,100,4.9,RU,1735510928
135,hamilton,39.1834,-84.5333,9.77,89,100,10.8,US,1735510651
136,alofi,-19.0595,-169.9187,28.94,65,20,4.12,NU,1735510931
137,lubango,-14.9172,13.4925,16.92,82,99,0.0,AO,1735510932
138,carolina beach,34.0352,-77.8936,16.15,94,98,0.89,US,1735510746
139,vilyuchinsk,52.9306,158.4028,-13.85,83,85,5.13,RU,1735510934
140,sao joao da barra,-21.6403,-41.0511,23.05,92,100,2.45,BR,1735510936
141,shimoda,34.6667,138.95,7.63,68,74,2.18,JP,1735510937
142,coquimbo,-29.9533,-71.3436,18.88,69,75,4.12,CL,1735510875
143,odacho-oda,35.1833,132.5,6.64,79,100,5.77,JP,1735510939
144,yerofey pavlovich,53.9667,121.9667,-26.35,99,90,0.55,RU,1735510941
145,tura,25.5198,90.2201,15.06,56,0,1.1,IN,1735510943
146,saint-pierre,-21.3393,55.4781,25.82,73,0,1.54,RE,1735510705
147,nongstoin,25.5167,91.2667,8.73,80,0,1.66,IN,1735510945
148,itamaraca,-7.7478,-34.8256,26.43,72,1,4.41,BR,1735510947
149,luanco,43.6152,-5.7934,8.71,91,21,2.19,ES,1735510948
150,badger,64.8,-147.5333,-29.86,80,8,1.09,US,1735510949
151,nikolayevsk-on-amure,53.1406,140.73,-29.93,98,55,1.78,RU,1735510950
152,hermanus,-34.4187,19.2345,16.56,84,45,0.32,ZA,1735510951
153,boda,4.3189,17.4695,26.48,37,41,1.41,CF,1735510952
154,dadeldhura,29.2984,80.5806,6.75,87,0,1.99,NP,1735510955
155,hadibu,12.65,54.0333,22.99,67,61,5.25,YE,1735510956
156,vershino-darasunskiy,52.35,115.5167,-24.1,100,37,1.75,RU,1735510957
157,talnakh,69.4865,88.3972,-16.2,96,99,3.25,RU,1735510958
158,aykhal,66.0,111.5,-26.87,98,100,3.11,RU,1735510959
159,tamanrasset,22.785,5.5228,11.95,17,0,4.63,DZ,1735510960
160,hawaiian paradise park,19.5933,-154.9731,26.05,75,20,3.6,US,1735510962
161,siwa oasis,29.2041,25.5195,14.47,50,95,3.92,EG,1735510964
162,dongsheng,39.8161,109.9776,-9.55,56,13,7.76,CN,1735510965
163,joensuu,62.6012,29.7632,2.27,93,75,4.12,FI,1735510967
164,zhangye,38.9342,100.4517,-13.85,75,95,1.99,CN,1735510940
165,mirnyy,62.5353,113.9611,-30.75,100,100,1.05,RU,1735510969
166,anadyr,64.75,177.4833,-9.72,67,100,15.0,RU,1735510970
167,yatou,37.15,122.3833,-0.33,52,58,2.64,CN,1735510971
168,shahr-e babak,30.1165,55.1186,8.19,63,100,3.27,IR,1735510973
169,la'ie,21.6477,-157.9253,27.75,81,45,3.58,US,1735510974
170,trairi,-3.2778,-39.2689,26.7,78,6,5.48,BR,1735510853
171,fort bragg,35.139,-79.006,15.46,94,100,7.2,US,1735510977
172,kimbe,-5.5502,150.1429,27.3,84,67,0.85,PG,1735510978
173,kiruna,67.8557,20.2251,-4.49,74,100,6.69,SE,1735510979
174,ust-nera,64.5667,143.2,-35.21,100,100,1.06,RU,1735510980
175,vernon,50.2581,-119.2691,2.74,89,100,0.51,CA,1735510981
176,tsiombe,-25.3,45.4833,24.81,82,1,3.27,MG,1735510983
177,tillicoultry,56.1525,-3.7402,9.89,84,100,10.84,GB,1735510984
178,yamada,39.4667,141.95,-2.56,75,63,1.34,JP,1735510985
179,tateyama,34.9833,139.8667,6.91,49,100,4.84,JP,1735510986
180,san patricio,28.017,-97.5169,26.97,26,0,0.68,US,1735510988
181,abepura,-2.6333,140.5833,26.45,94,20,1.54,ID,1735510989
182,port augusta,-32.5,137.7667,22.98,43,61,1.89,AU,1735510990
183,soverato marina,38.685,16.5499,9.24,78,0,2.8,IT,1735510991
184,puerto real,36.5282,-6.1901,12.36,81,20,2.06,ES,1735510993
185,miyako,39.6367,141.9525,-1.85,72,54,1.25,JP,1735510994
186,zaraza,9.3503,-65.3245,28.23,52,85,5.34,VE,1735510995
187,lihue,21.9789,-159.3672,25.77,67,100,7.72,US,1735510996
188,laguna,38.421,-121.4238,17.91,75,75,7.72,US,1735510999
189,eydhafushi,5.1033,73.0708,27.69,76,74,4.53,MV,1735511000
190,korsakov,46.6328,142.7813,-27.09,87,33,3.12,RU,1735511001
191,colonia,50.9333,6.95,1.65,93,100,2.57,DE,1735510709
192,beyneu,45.3167,55.2,-0.95,85,96,2.61,KZ,1735511004
193,murang'a,-0.7167,37.15,14.57,92,10,1.53,KE,1735511005
194,kuna,43.4918,-116.4201,9.49,80,75,1.34,US,1735511007
195,cosala,24.4125,-106.6908,30.55,14,0,2.75,MX,1735511008
196,fort mcmurray,56.7268,-111.381,-7.23,86,100,3.09,CA,1735511009
197,zhalantun,48.0,122.7167,-15.28,89,100,1.78,CN,1735511010
198,bairnsdale,-37.8333,147.6167,21.7,59,22,1.79,AU,1735511012
199,leh,34.1667,77.5833,-19.02,80,34,2.41,IN,1735511014
200,bermeo,43.4209,-2.7215,6.11,79,2,3.38,ES,1735511015
201,ulanhot,46.0833,122.0833,-14.17,90,25,2.13,CN,1735511018
202,zouerate,22.7187,-12.4521,16.91,20,3,5.96,MR,1735511019
203,puerto colombia,10.9878,-74.9547,28.05,79,100,4.62,CO,1735511020
204,bumba,2.1833,22.4667,24.41,44,47,0.78,CD,1735511021
205,sept-iles,50.2001,-66.3821,-0.53,95,100,3.09,CA,1735511023
206,sendhwa,21.6833,75.1,18.27,65,0,2.93,IN,1735511024
207,chachapoyas,-6.2317,-77.869,16.01,85,100,1.19,PE,1735511025
208,mahibadhoo,3.7833,72.9667,27.33,75,100,3.61,MV,1735511026
209,ube,33.9431,131.2511,5.99,75,100,1.54,JP,1735511029
210,mocimboa,-11.3167,40.35,25.29,91,100,3.28,MZ,1735511030
211,mengellang,7.6957,134.6305,28.15,78,100,7.14,PW,1735511031
212,konstantinovka,49.6167,127.9833,-28.57,100,76,0.39,RU,1735511032
213,codrington,-38.2667,141.9667,18.41,68,73,3.0,AU,1735511034
214,paita,-5.0892,-81.1144,21.54,81,60,6.12,PE,1735511035
215,hithadhoo,-0.6,73.0833,26.62,69,96,4.89,MV,1735511036
216,ancud,-41.8697,-73.8203,14.69,68,100,4.79,CL,1735511037
217,petropavlovsk-kamchatsky,53.0452,158.6483,-14.67,72,0,1.0,RU,1735510858
218,nguigmi,14.2495,13.1092,20.15,17,59,6.06,NE,1735511040
219,san antonio de pale,-1.4014,5.6325,26.81,79,96,1.87,GQ,1735511041
220,ngaoundere,7.3167,13.5833,19.74,26,51,1.96,CM,1735511044
221,hailar,49.2,119.7,-14.82,96,100,2.27,CN,1735510751
222,terre haute,39.4667,-87.4139,8.15,88,100,9.26,US,1735510983
223,kingston,17.997,-76.7936,26.53,83,75,5.14,JM,1735511047
224,mpika,-11.8343,31.4529,18.22,84,100,0.81,ZM,1735511048
225,mehar,27.1807,67.8229,13.85,20,8,2.57,PK,1735511050
226,kudahuvadhoo,2.6708,72.8944,27.03,71,76,1.68,MV,1735511051
227,rexburg,43.826,-111.7897,1.99,93,100,6.69,US,1735511052
228,lukuledi,-10.5667,38.8,23.26,91,89,2.61,TZ,1735511054
229,jiwani,25.05,61.7417,21.55,49,8,1.59,PK,1735511056
230,donaldsonville,30.101,-90.9929,21.08,64,0,1.54,US,1735511057
231,isafjordur,66.0755,-23.124,-7.95,79,90,4.7,IS,1735511059
232,gadzhiyevo,69.2551,33.3362,0.06,98,100,7.19,RU,1735511060
233,hoemul-li,41.4339,129.67,-5.17,58,4,2.03,KP,1735511061
234,college,64.8569,-147.8028,-29.95,76,0,0.0,US,1735511062
235,lebu,-37.6167,-73.65,15.95,76,78,5.86,CL,1735511064
236,amilly,47.9728,2.7719,2.81,92,4,1.87,FR,1735510799
237,bac lieu,9.285,105.7244,23.93,84,100,2.53,VN,1735511066
238,igarka,67.4667,86.5833,-14.16,95,100,4.26,RU,1735511053
239,kirakira,-10.4544,161.9205,25.18,93,100,2.05,SB,1735511068
240,canton,23.1167,113.25,14.61,37,0,2.05,CN,1735511070
241,cristuru secuiesc,46.2833,25.0333,0.55,87,69,0.09,RO,1735511039
242,illizi,26.4833,8.4667,12.56,29,28,6.58,DZ,1735511072
243,dili,-8.5586,125.5736,27.39,81,99,1.94,TL,1735511073
244,santana,-0.0583,-51.1817,25.1,100,75,2.57,BR,1735511075
245,beloyarskiy,63.7119,66.6722,-15.44,99,19,1.74,RU,1735511076
246,jaguaquara,-13.5306,-39.9708,23.04,72,89,3.73,BR,1735511077
247,dakhla,23.6848,-15.958,19.61,41,15,7.95,EH,1735511078
248,chibougamau,49.9168,-74.3659,0.79,100,100,2.06,CA,1735511080
249,ebon,4.582,168.6964,28.26,71,51,8.36,MH,1735511081
250,mumford,5.2618,-0.759,27.01,85,68,2.99,GH,1735511082
251,kyshtovka,56.555,76.6271,-13.77,97,89,3.66,RU,1735511083
252,labytnangi,66.6572,66.4183,-19.14,97,23,1.6,RU,1735511084
253,belel,7.05,14.4333,18.65,28,9,2.02,CM,1735511086
254,vila do maio,15.1333,-23.2167,24.05,84,4,5.77,CV,1735511087
255,ciudad bolivar,8.1222,-63.5497,32.35,35,26,2.56,VE,1735511088
256,chauk,20.8833,94.8167,19.61,70,0,1.74,MM,1735511089
257,amga,60.8953,131.9608,-49.91,100,67,0.29,RU,1735511090
258,kourou,5.1552,-52.6478,24.74,90,89,2.62,GF,1735511091
259,alekseyevka,50.6309,38.6903,-0.45,86,81,2.92,RU,1735511092
260,port saint john's,-31.6229,29.5448,23.22,92,28,2.18,ZA,1735511094
261,eaglehawk,-36.7333,144.25,22.36,43,3,0.97,AU,1735511095
262,mount pearl,47.5166,-52.7813,-0.48,92,100,0.45,CA,1735511096
263,vorozhba,51.1733,34.2192,1.04,89,100,3.65,UA,1735511097
264,rongelap,11.1635,166.8941,27.34,77,45,10.43,MH,1735511098
265,diego de almagro,-26.3667,-70.05,25.2,32,0,4.94,CL,1735511101
266,nadym,65.5333,72.5167,-23.08,100,96,1.85,RU,1735511102
267,pacific grove,36.6177,-121.9166,15.2,94,100,3.6,US,1735511104
268,minas de matahambre,22.5887,-83.9447,24.74,83,100,1.79,CU,1735511105
269,tofol,5.3248,163.0078,28.65,74,90,9.7,FM,1735511106
270,morganton,35.7454,-81.6848,15.23,84,62,4.02,US,1735511026
271,shahpur,16.7,76.8333,20.26,67,2,3.02,IN,1735511108
272,umea,63.8284,20.2597,-0.05,80,0,4.12,SE,1735510986
273,lashio,22.9333,97.75,10.63,93,0,0.77,MM,1735511111
274,sao vicente,-23.9631,-46.3919,24.97,26,100,2.24,BR,1735511112
275,arauco,-37.2463,-73.3175,22.03,41,86,5.55,CL,1735511113
276,twentynine palms,34.1356,-116.0542,23.62,26,6,0.61,US,1735511114
277,acapulco de juarez,16.8634,-99.8901,28.9,61,20,4.12,MX,1735511115
278,kochubey,44.3861,46.5825,-0.35,73,77,3.45,RU,1735511116
279,port douglas,-16.4833,145.4667,27.87,75,88,2.24,AU,1735511118
280,shatrovo,56.5167,64.6333,-13.44,96,38,3.04,RU,1735511119
281,new norfolk,-42.7826,147.0587,19.95,55,56,1.44,AU,1735511120
282,penzance,50.1186,-5.5371,8.75,82,39,3.01,GB,1735511121
283,sinabang,2.4803,96.3801,25.38,87,99,1.03,ID,1735511122
284,meulaboh,4.1363,96.1285,23.9,91,100,1.66,ID,1735511123
285,moose jaw,50.4001,-105.5344,-8.86,62,5,2.57,CA,1735511124
286,arraial do cabo,-22.9661,-42.0278,24.36,88,100,1.87,BR,1735511127
287,le puy-en-velay,45.0437,3.8852,-0.08,80,2,1.14,FR,1735511128
288,edd,13.9297,41.6925,25.5,70,40,5.06,ER,1735511129
289,tolanaro,-25.0319,46.9987,26.04,89,20,8.23,MG,1735511130
290,saipan,15.1355,145.701,28.39,78,20,7.2,MP,1735510863
291,dudinka,69.4058,86.1778,-13.65,94,100,5.6,RU,1735511132
292,changling,44.2653,124.0005,-14.48,89,61,2.39,CN,1735511134
293,kununurra,-15.7667,128.7333,28.99,84,89,0.51,AU,1735511135
294,senanga,-16.1167,23.2667,22.78,75,98,1.87,ZM,1735511136
295,inarajan village,13.2736,144.7484,28.0,84,56,7.86,GU,1735511137
296,solleftea,63.1667,17.2667,-10.08,69,60,5.14,SE,1735511138
297,namibe,-15.1961,12.1522,23.99,66,97,2.24,AO,1735511140
298,ciudad lazaro cardenas,17.9583,-102.2,26.64,56,0,3.75,MX,1735511141
299,selfoss,63.9331,-20.9971,-11.09,81,26,3.94,IS,1735511142
300,alpine,32.835,-116.7664,19.64,53,0,3.6,US,1735511143
301,mana,5.6592,-53.7767,25.86,83,58,3.36,GF,1735511144
302,vreed-en-hoop,6.8093,-58.198,28.01,78,75,3.09,GY,1735511146
303,tanumah,27.1,44.1333,12.65,31,100,3.61,SA,1735511147
304,trondheim,63.4305,10.3951,1.03,85,100,2.24,NO,1735510960
305,sain alto,23.5833,-103.25,21.41,9,49,2.9,MX,1735511150
306,kushiro,42.975,144.3747,-10.47,85,39,2.57,JP,1735511151
307,shreveport,32.5251,-93.7502,15.0,82,100,2.57,US,1735511041
308,enewetak,11.3474,162.3373,27.26,78,34,9.63,MH,1735511154
309,constantia,44.1833,28.65,0.39,82,4,2.93,RO,1735510978
310,katabu,-4.9333,122.5167,24.22,95,98,0.39,ID,1735511156
311,saint-chamond,45.4737,4.5254,-0.73,79,3,1.78,FR,1735511158
312,lebowakgomo,-24.2,29.5,16.25,85,100,1.98,ZA,1735511159
313,sadjoavato,-12.6334,49.349,22.81,93,92,0.35,MG,1735511160
314,flying fish cove,-10.4217,105.6791,23.82,94,100,2.57,CX,1735511162
315,sitka,57.0531,-135.33,3.94,81,20,0.0,US,1735511163
316,vyetka,52.5591,31.1794,-0.92,100,100,6.0,BY,1735511164
317,greenville,35.6127,-77.3663,15.07,100,100,1.54,US,1735510905
318,ceerigaabo,10.6162,47.368,13.46,59,4,2.36,SO,1735511168
319,chambas,22.1928,-78.9136,25.23,68,100,4.16,CU,1735511169
320,alesund,62.4723,6.1549,4.31,75,75,8.23,NO,1735511171
321,south hedland,-20.4089,118.5983,29.96,74,53,0.0,AU,1735511172
322,christchurch,-43.5333,172.6333,16.08,88,75,8.23,NZ,1735511173
323,kismayo,-0.3582,42.5454,25.53,81,86,7.09,SO,1735511176
324,baley,51.6,116.6333,-24.76,100,70,1.82,RU,1735511177
325,brokopondo,4.75,-55.1667,24.92,88,100,3.46,SR,1735511178
326,rikaze,29.25,88.8833,-4.82,42,0,0.3,CN,1735511180
327,richards bay,-28.783,32.0377,23.39,94,1,1.9,ZA,1735511181
328,lukhovka,54.1484,45.2573,-5.45,95,100,3.73,RU,1735511182
329,dhankuta,26.9833,87.3333,7.96,71,0,2.69,NP,1735511183
330,vigan,17.5747,120.3869,23.85,78,16,2.21,PH,1735511185
331,santo amaro,-12.5467,-38.7119,23.29,90,90,3.3,BR,1735511186
332,nayoro,44.3506,142.4578,-11.25,94,52,1.94,JP,1735511187
333,riscani,47.9572,27.5539,1.05,84,26,2.12,MD,1735511188
334,oranjemund,-28.55,16.4333,17.04,87,51,0.68,NA,1735511189
335,kummersbruck,49.4192,11.8883,0.29,97,27,1.62,DE,1735511191
336,port blair,11.6667,92.75,27.02,89,40,1.03,IN,1735511192
337,myingyan,21.4667,95.3833,19.22,73,0,1.1,MM,1735511193
338,kovdor,67.5662,30.4758,-3.02,81,100,7.13,RU,1735511194
339,ketchikan,55.3422,-131.6461,3.52,87,20,3.6,US,1735511195
340,kyaikkami,16.08,97.5675,26.11,70,13,2.32,MM,1735511197
341,homer,59.6425,-151.5483,-3.06,80,0,2.06,US,1735511074
342,burutu,5.3509,5.5076,27.58,79,100,3.96,NG,1735511199
343,mentekab,3.4854,102.3484,23.3,99,100,0.74,MY,1735511200
344,red bluff,40.1785,-122.2358,15.73,67,0,0.0,US,1735511201
345,armacao de buzios,-22.7469,-41.8817,23.32,92,100,1.69,BR,1735511203
346,happy valley-goose bay,53.3168,-60.3315,-3.83,93,100,1.54,CA,1735511204
347,tymovskoye,50.8456,142.655,-24.71,99,100,1.03,RU,1735511205
348,meadow lake,34.8014,-106.5436,17.1,26,2,2.04,US,1735511206
349,daru,-9.0763,143.2092,27.7,73,96,1.52,PG,1735511208
350,salinas,36.6777,-121.6555,15.43,96,100,5.66,US,1735511066
351,hassi messaoud,31.6804,6.0729,9.92,66,0,2.57,DZ,1735511210
352,nizhniy odes,63.6445,54.856,-3.6,94,100,4.22,RU,1735511211
353,hainburg an der donau,48.1463,16.945,-1.4,92,77,1.94,AT,1735511213
354,kenai,60.5544,-151.2583,-7.7,88,0,2.57,US,1735511214
355,luderitz,-26.6481,15.1594,17.1,81,46,3.1,NA,1735511215
356,platteville,42.7342,-90.4785,3.42,100,0,0.0,US,1735511216
357,nuuk,64.1835,-51.7216,-6.66,45,0,7.72,GL,1735511218
358,queenstown,-31.8976,26.8753,19.87,85,48,1.74,ZA,1735511219
359,kosong,38.3788,128.4676,2.7,81,67,4.05,KR,1735511220
360,petropavlivka,48.4564,36.4367,-1.15,82,25,1.54,UA,1735511221
361,sabang,5.8933,95.3214,25.68,90,100,5.87,ID,1735511223
362,alamosa,37.4695,-105.87,12.99,22,0,5.66,US,1735511224
363,tazacorte,28.629,-17.9293,17.54,76,75,3.6,ES,1735511225
364,kokopo,-4.352,152.2633,27.66,76,86,1.5,PG,1735511226
365,shingu,33.7333,135.9833,2.39,76,89,2.9,JP,1735511227
366,brisas de zicatela,15.8369,-97.0419,28.29,83,20,3.09,MX,1735511229
367,arkhangel'sk,64.5401,40.5433,1.06,93,100,5.0,RU,1735511230
368,mhamid,29.82,-5.72,9.46,39,6,3.09,MA,1735511231
369,vorgashor,67.5833,63.95,-13.4,96,97,4.58,RU,1735511232
370,qaqortoq,60.7167,-46.0333,-16.04,62,0,3.29,GL,1735511233
371,nizhneudinsk,54.9076,99.0276,-9.54,83,100,1.72,RU,1735511235
372,muroto-misakicho,33.2833,134.15,8.62,59,97,4.32,JP,1735511236
373,villa bruzual,9.3328,-69.1208,31.14,41,100,1.34,VE,1735511237
374,iwanai,42.9744,140.5089,-3.23,66,100,6.11,JP,1735511238
375,realico,-35.0366,-64.2447,32.66,19,57,6.2,AR,1735511240
376,revelstoke,50.9832,-118.2023,2.01,93,100,0.0,CA,1735511241
377,kill devil hills,36.0307,-75.676,16.66,83,100,6.69,US,1735511242
378,nemuro,43.3236,145.575,-4.36,59,12,9.1,JP,1735511243
379,taro,-8.3862,115.28,20.3,98,100,0.26,ID,1735511244
380,ed damer,17.5928,33.9592,20.89,14,6,8.29,SD,1735511246
381,turgen,43.4006,77.5933,-0.76,65,100,3.0,KZ,1735511247
382,kolyvan',55.3053,82.7391,-9.49,94,99,3.82,RU,1735511249
383,margate,51.3813,1.3862,6.04,93,20,5.66,GB,1735511250
384,uturoa,-16.7333,-151.4333,27.44,75,51,4.47,PF,1735511251
385,nkhotakota,-12.9274,34.2961,25.97,72,81,1.11,MW,1735511252
386,sorong,-0.8833,131.25,27.76,79,100,4.71,ID,1735511253
387,wuwei,37.9281,102.6414,-5.86,57,100,1.21,CN,1735511255
388,mukalla,14.5425,49.1242,22.41,78,42,2.91,YE,1735511256
389,kita,13.0349,-9.4895,24.62,18,9,3.08,ML,1735511257
390,lorengau,-2.0226,147.2712,27.83,79,100,3.24,PG,1735511258
391,murashi,59.3999,48.9615,-3.14,92,100,5.27,RU,1735511066
392,thayetmyo,19.3167,95.1833,18.03,82,0,0.76,MM,1735511260
393,geraldton,-28.7667,114.6,22.23,68,75,6.17,AU,1735511122
394,guarapari,-20.6667,-40.4975,23.06,94,100,1.3,BR,1735511263
395,howrah,22.5892,88.3103,19.0,82,0,2.57,IN,1735511264
396,dalbandin,28.8947,64.4101,11.23,15,82,1.16,PK,1735511265
397,namdrik,5.5994,168.1028,28.21,68,99,8.7,MH,1735511266
398,island harbour,50.724,-1.2758,9.04,93,66,0.89,GB,1735511267
399,las khorey,11.1595,48.1967,22.61,64,4,1.65,SO,1735511268
400,sao gabriel da cachoeira,-0.1303,-67.0892,23.43,97,100,0.43,BR,1735511269
401,tangalle,6.024,80.7911,24.9,87,89,0.78,LK,1735511271
402,galesong,-5.3166,119.3661,25.79,82,100,2.79,ID,1735511272
403,maumere,-8.6199,122.2111,26.51,85,100,1.75,ID,1735511273
404,el bolson,-41.9667,-71.5167,26.49,30,84,2.17,AR,1735511274
405,sa'dah,16.9402,43.7639,12.8,31,2,0.37,YE,1735511275
406,sainte-agathe-des-monts,46.0501,-74.2825,1.78,97,100,0.45,CA,1735511073
407,tromso,69.6496,18.957,2.01,64,75,6.17,NO,1735511277
408,lamu,-2.2717,40.902,26.52,77,97,6.21,KE,1735511279
409,jalalaqsi,3.3766,45.5996,22.86,77,10,6.13,SO,1735511280
410,smithers,54.7804,-127.1743,-3.82,86,75,1.03,CA,1735511281
411,banikoara,11.2985,2.4386,23.3,16,9,2.44,BJ,1735511283
412,burang,30.25,81.1667,-20.83,86,8,1.72,CN,1735511284
413,yulinshi,38.2906,109.7494,-4.95,46,100,6.23,CN,1735511285
414,tralee,52.2704,-9.7026,9.47,90,100,3.63,IE,1735510998
415,santa vitoria do palmar,-33.5189,-53.3681,19.52,68,3,4.01,BR,1735511082
416,bardai,11.65,7.2333,19.32,24,73,4.43,NG,1735511289
417,bubaque,11.2833,-15.8333,26.39,75,0,3.58,GW,1735511290
418,newman,37.3138,-121.0208,15.58,88,100,0.89,US,1735511292
419,el calafate,-50.3408,-72.2768,19.49,43,70,4.23,AR,1735511230
420,ibradi,37.0969,31.5992,0.55,84,45,2.47,TR,1735511294
421,ulety,51.3572,112.4849,-13.63,86,97,3.67,RU,1735511295
422,campo formoso,-10.5075,-40.3214,22.51,69,38,1.94,BR,1735511297
423,balkashino,52.5167,68.7667,-18.36,100,100,1.93,KZ,1735511298
424,cururupu,-1.8283,-44.8683,26.46,80,96,2.06,BR,1735511299
425,prado,-17.3411,-39.2208,25.52,83,52,6.34,BR,1735511301
426,jutai,-5.1833,-68.9,24.09,91,100,0.47,BR,1735511302
427,cartagena,10.3997,-75.5144,29.79,74,75,2.57,CO,1735511141
428,qarazhal,48.0078,70.7903,-6.55,87,100,2.84,KZ,1735511304
429,villa lazaro cardenas,20.4583,-97.7,28.71,58,6,1.85,MX,1735511305
430,castanos,26.7833,-101.4167,28.52,12,20,2.57,MX,1735511307
431,portland,45.5234,-122.6762,11.3,82,75,4.63,US,1735511071
432,faya-largeau,17.9257,19.1043,18.97,21,62,10.46,TD,1735511309
433,vadso,70.0744,29.7487,1.09,86,75,7.72,NO,1735511310
434,weno,7.4515,151.8468,25.97,94,100,3.09,FM,1735511312
435,khanty-mansiysk,61.0042,69.0019,-9.94,85,0,5.0,RU,1735511313
436,la ronge,55.1001,-105.2842,-6.86,86,100,3.09,CA,1735511314
437,puerto deseado,-47.7503,-65.8938,15.53,71,10,11.76,AR,1735511315
438,lerwick,60.1545,-1.1494,3.58,65,100,5.48,GB,1735511317
439,thinadhoo,0.5333,72.9333,26.65,67,98,3.9,MV,1735511318
440,cannonvale,-20.2833,148.7,28.66,67,51,2.18,AU,1735511319
441,viedma,-40.8135,-62.9967,24.15,51,82,6.93,AR,1735511127
442,cabo san lucas,22.8909,-109.9124,24.86,51,40,4.12,MX,1735511322
443,narvik,68.4384,17.4272,-0.66,97,88,6.48,NO,1735511323
444,tame,6.461,-71.73,31.68,37,89,1.32,CO,1735511325
445,yaren,-0.5472,166.916,27.22,82,95,6.45,NR,1735511327
446,dhidhdhoo,6.8833,73.1,27.69,75,39,3.28,MV,1735511328
447,bodden town,19.2833,-81.25,28.0,89,40,2.57,KY,1735511329
448,lichinga,-13.3128,35.2406,18.54,84,100,1.5,MZ,1735511330
449,letlhakane,-21.4167,25.5833,24.91,67,86,5.87,BW,1735511115
450,kargasok,59.0556,80.8572,-8.49,93,98,4.46,RU,1735511333
451,juhaynah,26.6732,31.4976,12.32,50,55,2.93,EG,1735511334
452,nagqu,31.5,92.0,-10.93,62,100,2.52,CN,1735511335
453,aliabad,41.4822,46.6353,6.79,87,100,3.09,AZ,1735511336
454,vakarai,55.6035,23.8213,4.48,91,100,6.55,LT,1735511338
455,fort st. john,56.2499,-120.8529,-15.06,85,75,2.57,CA,1735511339
456,vila nova de foz coa,41.0637,-7.2039,3.07,89,1,0.54,PT,1735511340
457,kani keli,-12.9536,45.1033,27.59,76,100,4.92,YT,1735511341
458,farsala,39.2947,22.3847,4.98,73,22,0.85,GR,1735511342
459,nantucket,41.2835,-70.0995,9.52,93,0,4.63,US,1735511344
460,nangis,48.5554,3.0131,2.75,98,98,1.66,FR,1735511345
461,al majaridah,19.1236,41.9111,23.34,79,75,1.16,SA,1735511346
462,marsa alam,25.0757,34.8918,16.94,37,65,3.68,EG,1735511347
463,pirenopolis,-15.8525,-48.9592,20.68,87,93,0.97,BR,1735511348
464,baoding,38.8511,115.4903,-1.68,33,22,0.68,CN,1735511350
465,kiunga,-6.1219,141.2906,22.58,99,100,1.64,PG,1735511351
466,silao,20.9333,-101.4333,26.21,11,0,4.12,MX,1735511352
467,thunder bay,48.4001,-89.3168,0.99,100,75,2.06,CA,1735511274
468,yasuj,30.6682,51.588,5.75,81,40,0.0,IR,1735511355
469,bel ombre,-4.6167,55.4167,26.91,83,40,0.0,SC,1735511356
470,zabaykal'sk,49.6333,117.3167,-16.77,95,99,6.25,RU,1735511358
471,ambon,-3.6954,128.1814,27.16,100,20,1.54,ID,1735511360
472,nuku'alofa,-21.1333,-175.2,27.19,74,40,5.66,TO,1735511361
473,flin flon,54.7682,-101.865,-5.09,93,100,1.54,CA,1735511362
474,kupang,-10.1667,123.5833,25.32,100,75,1.03,ID,1735511093
475,benguela,-12.5763,13.4055,25.5,88,97,2.67,AO,1735511366
476,hastings,50.8552,0.5729,7.66,65,26,4.79,GB,1735511367
477,pandan,14.0453,124.1694,25.59,91,67,5.61,PH,1735511369
478,tres lagoas,-20.7511,-51.6783,28.33,42,0,1.98,BR,1735511370
479,funafuti,-8.5243,179.1942,32.0,66,20,2.57,TV,1735511371
480,gebze,40.8028,29.4307,6.53,87,75,5.14,TR,1735511374
481,afikpo,5.8931,7.9374,25.14,71,100,2.09,NG,1735511376
482,yozgat,39.5833,35.3333,1.23,87,100,2.57,TR,1735511377
483,germencik,37.8706,27.6028,4.81,93,98,1.59,TR,1735511378
484,zharkent,44.1628,80.0,-5.93,70,100,1.57,KZ,1735511380
485,inhambane,-23.865,35.3833,25.56,85,18,2.51,MZ,1735511381
486,el porvenir,13.7617,-87.3458,26.88,77,100,1.64,HN,1735511382
487,vredendal,-31.6683,18.5012,16.46,86,19,0.86,ZA,1735511383
488,al mindak,20.1588,41.2834,12.31,90,30,0.16,SA,1735511384
489,tarawa,1.419,172.984,26.05,94,75,3.6,KI,1735511386
490,iacu,-12.7672,-40.2117,27.44,56,25,4.17,BR,1735511387
491,howard springs,-12.497,131.047,28.95,95,99,2.07,AU,1735511388
492,shubarshi,48.5872,57.1869,-3.51,94,100,1.86,KZ,1735511389
493,poronaysk,49.2167,143.1167,-25.7,99,100,2.18,RU,1735511390
494,novodvinsk,64.4165,40.8122,0.86,98,100,5.79,RU,1735511392
495,mossel bay,-34.1831,22.146,21.96,88,98,3.23,ZA,1735511393
496,trujillo,-8.116,-79.03,18.98,82,75,3.6,PE,1735511394
497,revda,56.801,59.9303,-9.35,94,100,2.69,RU,1735511395
498,ushtobe,45.2514,77.9838,-6.42,83,100,1.46,KZ,1735511397
499,al kharijah,25.4514,30.5464,11.95,44,60,3.39,EG,1735511398
500,labrador city,52.9463,-66.9114,0.1,82,100,18.78,CA,1735511399
501,middlebury (village),44.0153,-73.1673,4.96,93,100,0.0,US,1735511400
502,isaka,-3.9,32.9333,18.35,85,36,1.13,TZ,1735511402
503,bessemer,33.4018,-86.9544,17.1,72,12,0.45,US,1735511403
504,porto murtinho,-21.6989,-57.8825,29.19,25,0,2.4,BR,1735511404
505,isangel,-19.55,169.2667,29.06,65,40,1.03,VU,1735511408
506,zag,46.9441,99.165,-28.22,91,56,0.66,MN,1735511410
507,fortuna,40.5982,-124.1573,11.66,94,82,0.89,US,1735511411
508,mawu,34.4307,104.9176,-4.62,33,100,1.8,CN,1735511412
509,chios,38.3678,26.1358,8.44,81,95,10.16,GR,1735511413
510,khabarovsk,48.4808,135.0928,-26.11,76,29,2.0,RU,1735511414
511,siocon,7.7061,122.1353,26.63,90,96,4.3,PH,1735511415
512,saudarkrokur,65.7461,-19.6394,-10.96,83,99,3.29,IS,1735511417
513,barcelos,41.5388,-8.6151,7.0,84,4,1.84,PT,1735511418
514,marsabit,2.3284,37.9899,20.46,45,22,3.4,KE,1735511419
515,maintirano,-18.0667,44.0167,26.73,78,15,2.4,MG,1735511420
516,la tijera,19.9,-104.4,22.3,28,0,2.96,MX,1735511421
517,chengde,40.9725,117.9361,-6.09,51,0,2.81,CN,1735511423
518,mahenge,-8.6833,36.7167,18.33,93,75,1.14,TZ,1735511424
519,forster,-32.1667,152.5167,26.32,65,0,2.39,AU,1735511425
520,vilyuysk,63.7553,121.6247,-37.64,99,98,1.65,RU,1735511426
521,port hedland,-20.3167,118.5667,30.03,74,50,0.0,AU,1735511428
522,callao,-12.0667,-77.15,22.16,73,0,8.23,PE,1735511429
523,west kelowna,49.8625,-119.5833,3.62,95,100,0.0,CA,1735511431
524,carnarvon,-24.8667,113.6333,25.21,70,0,4.63,AU,1735511432
525,fada,7.25,4.0667,22.97,84,86,0.48,NG,1735511433
526,porto novo,6.4965,2.6036,28.9,82,47,3.27,BJ,1735511434
527,peace river,56.2501,-117.286,-8.83,92,100,1.54,CA,1735511277
528,moscow,55.7522,37.6156,1.32,61,100,4.48,RU,1735511341
529,argo,37.6333,22.7333,6.31,71,6,1.97,GR,1735511438
530,pekan,3.4836,103.3996,23.93,95,100,3.79,MY,1735511439
531,palapag,12.5458,125.1147,25.2,94,97,3.52,PH,1735511440
532,ak'ordat,15.5486,37.8867,19.78,85,6,1.88,ER,1735511442
533,grand falls-windsor,48.9332,-55.6649,-0.28,85,100,0.93,CA,1735511443
534,mont-dore,-22.2833,166.5833,28.33,99,13,3.75,NC,1735511444
535,timmins,48.4669,-81.3331,1.9,100,100,1.03,CA,1735511155
536,adigrat,14.277,39.462,10.97,70,23,2.15,ET,1735511447
537,as sulayyil,20.4607,45.5779,16.78,37,5,3.25,SA,1735511448
538,krasnovishersk,60.4078,57.082,-4.7,95,100,3.74,RU,1735511449
539,tra mhor,52.1624,-7.1524,9.49,86,16,1.34,IE,1735511451
540,arteche,12.2645,125.4048,25.78,92,100,3.94,PH,1735511452
541,vanimo,-2.6741,141.3028,27.23,82,100,1.42,PG,1735511453
542,mamuju,-2.6748,118.8885,26.15,77,83,2.2,ID,1735511454
543,ghat,24.9647,10.1728,11.5,35,78,2.59,LY,1735511456
544,usinsk,65.9939,57.5281,-5.63,95,98,8.78,RU,1735511457
545,yangquan,37.8575,113.5633,-0.87,36,94,4.75,CN,1735511458
546,bouarfa,32.53,-1.95,3.3,60,34,0.78,MA,1735511459
547,swakopmund,-22.6833,14.5333,18.02,79,100,4.72,NA,1735511461
548,assesse,50.3693,5.022,0.13,96,93,2.27,BE,1735511462
549,colle di val d'elsa,43.4151,11.1314,9.45,100,0,0.43,IT,1735511463
550,rock forest,45.3702,-71.99,4.9,96,100,2.57,CA,1735511464
551,bengkulu,-3.8004,102.2655,24.68,90,99,2.03,ID,1735511466
552,madalena,41.2162,-8.3345,7.32,74,5,1.5,PT,1735511467
553,krasnyy chikoy,50.3643,108.7512,-23.98,100,91,0.55,RU,1735511468
554,gardnerville ranchos,38.8882,-119.7413,8.21,67,100,7.15,US,1735511470
555,el jadid,33.2549,-8.506,14.69,71,6,0.89,MA,1735511471
556,vanino,49.0869,140.2543,-23.99,88,2,2.48,RU,1735511472
557,zaruma,-3.6833,-79.6167,17.37,98,100,0.68,EC,1735511473
558,heinola,61.2056,26.0381,2.37,92,100,4.72,FI,1735511475
559,crucecita,-28.95,-58.9833,26.72,41,0,3.9,AR,1735511476
560,miri,4.4148,114.0089,24.08,100,20,1.54,MY,1735511478
561,tumpat,6.1978,102.171,22.99,94,20,1.54,MY,1735511479
562,kailua-kona,19.6406,-155.9956,28.09,70,20,5.14,US,1735511481
563,aguilas,37.4063,-1.5829,11.12,86,4,4.06,ES,1735511482
564,katsuura,35.1333,140.3,7.19,50,51,4.01,JP,1735511483
565,bowen,-20.0167,148.2333,27.24,67,99,2.88,AU,1735511484
566,ceres,37.5949,-120.9577,17.21,73,20,5.14,US,1735511485
567,san pedro,14.35,121.0167,24.57,97,100,2.06,PH,1735511486
568,nadi,-17.8,177.4167,29.0,65,20,1.54,FJ,1735511488
569,tuy hoa,13.0833,109.3,21.15,94,100,2.51,VN,1735511489
570,weihai,37.5017,122.1136,1.78,47,43,3.77,CN,1735511490
571,omdurman,15.6445,32.4777,21.7,22,1,7.48,SD,1735511491
572,el granada,37.5027,-122.4694,15.66,90,75,4.12,US,1735511493
573,crane,31.3974,-102.3501,21.96,20,2,1.68,US,1735511494
574,mooroopna,-36.4,145.35,24.51,33,0,3.04,AU,1735511495
575,christies beach,-35.1396,138.4698,22.87,66,80,1.79,AU,1735511497
576,beinamar,8.6698,15.3813,23.66,23,64,2.35,TD,1735511498
577,coihueco,-36.6167,-71.8333,30.41,25,0,6.17,CL,1735511342
578,sliven,42.6858,26.3292,-2.8,89,35,1.97,BG,1735511500
579,hirara,24.8,125.2833,18.92,72,91,3.6,JP,1735511501
580,cozumel,20.5083,-86.9458,27.04,89,100,3.6,MX,1735511503
581,neryungri,56.6709,124.6491,-25.46,100,100,0.73,RU,1735511506
582,nushki,29.5542,66.0215,10.84,15,67,1.65,PK,1735511508
583,zhaodong,46.0833,125.9833,-15.13,98,94,1.47,CN,1735511509
584,nastola,60.95,25.9333,3.17,91,100,5.1,FI,1735511510
585,leava,-14.3,-178.1667,28.55,72,59,2.75,WF,1735511512
586,rudnyy,52.9594,63.1206,-18.01,99,58,1.37,KZ,1735511513
587,ayutla,20.1167,-104.3333,25.42,15,0,2.56,MX,1735511514
588,ndjole,-0.1783,10.7649,24.53,96,58,0.9,GA,1735511515
589,astrakhan,46.3497,48.0408,-2.07,100,100,4.0,RU,1735511517
590,sompeta,18.9333,84.6,21.49,69,0,0.81,IN,1735511519
591,kavalerovo,44.2661,135.0572,-14.46,72,100,1.19,RU,1735511520
592,ponta delgada,37.7333,-25.6667,18.44,82,40,5.66,PT,1735511522
593,al kharj,24.155,47.3346,16.32,43,85,2.34,SA,1735511523
594,vorkuta,67.5,64.0,-12.01,96,98,4.57,RU,1735511524
595,charlottetown,46.2352,-63.1267,1.29,100,100,2.57,CA,1735511360
596,quepos,9.4236,-84.1652,24.79,90,100,0.57,CR,1735511527
